[
    {
        "name": "New York",
        "latitude": 40.6943,
        "longitude": -73.9249,
        "state": "New York"
    },
    {
        "name": "Los Angeles",
        "latitude": 34.1141,
        "longitude": -118.4068,
        "state": "California"
    },
    {
        "name": "Chicago",
        "latitude": 41.8375,
        "longitude": -87.6866,
        "state": "Illinois"
    },
    {
        "name": "Miami",
        "latitude": 25.784,
        "longitude": -80.2101,
        "state": "Florida"
    },
    {
        "name": "Dallas",
        "latitude": 32.7935,
        "longitude": -96.7667,
        "state": "Texas"
    },
    {
        "name": "Houston",
        "latitude": 29.786,
        "longitude": -95.3885,
        "state": "Texas"
    },
    {
        "name": "Philadelphia",
        "latitude": 40.0077,
        "longitude": -75.1339,
        "state": "Pennsylvania"
    },
    {
        "name": "Atlanta",
        "latitude": 33.7628,
        "longitude": -84.422,
        "state": "Georgia"
    },
    {
        "name": "Washington",
        "latitude": 38.9047,
        "longitude": -77.0163,
        "state": "District of Columbia"
    },
    {
        "name": "Boston",
        "latitude": 42.3188,
        "longitude": -71.0852,
        "state": "Massachusetts"
    },
    {
        "name": "Phoenix",
        "latitude": 33.5722,
        "longitude": -112.0892,
        "state": "Arizona"
    },
    {
        "name": "Detroit",
        "latitude": 42.3834,
        "longitude": -83.1024,
        "state": "Michigan"
    },
    {
        "name": "Seattle",
        "latitude": 47.6211,
        "longitude": -122.3244,
        "state": "Washington"
    },
    {
        "name": "San Francisco",
        "latitude": 37.7558,
        "longitude": -122.4449,
        "state": "California"
    },
    {
        "name": "San Diego",
        "latitude": 32.8313,
        "longitude": -117.1222,
        "state": "California"
    },
    {
        "name": "Minneapolis",
        "latitude": 44.9635,
        "longitude": -93.2678,
        "state": "Minnesota"
    },
    {
        "name": "Brooklyn",
        "latitude": 40.6501,
        "longitude": -73.9496,
        "state": "New York"
    },
    {
        "name": "Tampa",
        "latitude": 27.9945,
        "longitude": -82.4447,
        "state": "Florida"
    },
    {
        "name": "Denver",
        "latitude": 39.762,
        "longitude": -104.8758,
        "state": "Colorado"
    },
    {
        "name": "Queens",
        "latitude": 40.7498,
        "longitude": -73.7976,
        "state": "New York"
    },
    {
        "name": "Baltimore",
        "latitude": 39.3051,
        "longitude": -76.6144,
        "state": "Maryland"
    },
    {
        "name": "Las Vegas",
        "latitude": 36.2333,
        "longitude": -115.2654,
        "state": "Nevada"
    },
    {
        "name": "St. Louis",
        "latitude": 38.6359,
        "longitude": -90.2451,
        "state": "Missouri"
    },
    {
        "name": "Portland",
        "latitude": 45.5371,
        "longitude": -122.65,
        "state": "Oregon"
    },
    {
        "name": "Riverside",
        "latitude": 33.9381,
        "longitude": -117.3949,
        "state": "California"
    },
    {
        "name": "Orlando",
        "latitude": 28.4773,
        "longitude": -81.337,
        "state": "Florida"
    },
    {
        "name": "Sacramento",
        "latitude": 38.5677,
        "longitude": -121.4685,
        "state": "California"
    },
    {
        "name": "San Antonio",
        "latitude": 29.4632,
        "longitude": -98.5238,
        "state": "Texas"
    },
    {
        "name": "San Jose",
        "latitude": 37.3012,
        "longitude": -121.848,
        "state": "California"
    },
    {
        "name": "Pittsburgh",
        "latitude": 40.4397,
        "longitude": -79.9763,
        "state": "Pennsylvania"
    },
    {
        "name": "Cincinnati",
        "latitude": 39.1413,
        "longitude": -84.506,
        "state": "Ohio"
    },
    {
        "name": "Manhattan",
        "latitude": 40.7834,
        "longitude": -73.9662,
        "state": "New York"
    },
    {
        "name": "Cleveland",
        "latitude": 41.4764,
        "longitude": -81.6805,
        "state": "Ohio"
    },
    {
        "name": "Indianapolis",
        "latitude": 39.7771,
        "longitude": -86.1458,
        "state": "Indiana"
    },
    {
        "name": "Austin",
        "latitude": 30.3005,
        "longitude": -97.7522,
        "state": "Texas"
    },
    {
        "name": "Kansas City",
        "latitude": 39.1238,
        "longitude": -94.5541,
        "state": "Missouri"
    },
    {
        "name": "Columbus",
        "latitude": 39.9862,
        "longitude": -82.9855,
        "state": "Ohio"
    },
    {
        "name": "Charlotte",
        "latitude": 35.2083,
        "longitude": -80.8303,
        "state": "North Carolina"
    },
    {
        "name": "Virginia Beach",
        "latitude": 36.7335,
        "longitude": -76.0435,
        "state": "Virginia"
    },
    {
        "name": "Bronx",
        "latitude": 40.8501,
        "longitude": -73.8662,
        "state": "New York"
    },
    {
        "name": "Milwaukee",
        "latitude": 43.0642,
        "longitude": -87.9675,
        "state": "Wisconsin"
    },
    {
        "name": "Providence",
        "latitude": 41.823,
        "longitude": -71.4187,
        "state": "Rhode Island"
    },
    {
        "name": "Jacksonville",
        "latitude": 30.3322,
        "longitude": -81.6749,
        "state": "Florida"
    },
    {
        "name": "Salt Lake City",
        "latitude": 40.7776,
        "longitude": -111.9311,
        "state": "Utah"
    },
    {
        "name": "Nashville",
        "latitude": 36.1715,
        "longitude": -86.7842,
        "state": "Tennessee"
    },
    {
        "name": "Raleigh",
        "latitude": 35.8324,
        "longitude": -78.6429,
        "state": "North Carolina"
    },
    {
        "name": "Memphis",
        "latitude": 35.1087,
        "longitude": -89.9663,
        "state": "Tennessee"
    },
    {
        "name": "Louisville",
        "latitude": 38.1663,
        "longitude": -85.6485,
        "state": "Kentucky"
    },
    {
        "name": "Richmond",
        "latitude": 37.5295,
        "longitude": -77.4756,
        "state": "Virginia"
    },
    {
        "name": "Buffalo",
        "latitude": 42.9018,
        "longitude": -78.8487,
        "state": "New York"
    },
    {
        "name": "Oklahoma City",
        "latitude": 35.4676,
        "longitude": -97.5136,
        "state": "Oklahoma"
    },
    {
        "name": "Bridgeport",
        "latitude": 41.1918,
        "longitude": -73.1954,
        "state": "Connecticut"
    },
    {
        "name": "New Orleans",
        "latitude": 30.0687,
        "longitude": -89.9288,
        "state": "Louisiana"
    },
    {
        "name": "Fort Worth",
        "latitude": 32.7817,
        "longitude": -97.3474,
        "state": "Texas"
    },
    {
        "name": "Hartford",
        "latitude": 41.7661,
        "longitude": -72.6834,
        "state": "Connecticut"
    },
    {
        "name": "Tucson",
        "latitude": 32.1541,
        "longitude": -110.8787,
        "state": "Arizona"
    },
    {
        "name": "McAllen",
        "latitude": 26.2252,
        "longitude": -98.2467,
        "state": "Texas"
    },
    {
        "name": "Omaha",
        "latitude": 41.2627,
        "longitude": -96.0529,
        "state": "Nebraska"
    },
    {
        "name": "El Paso",
        "latitude": 31.8476,
        "longitude": -106.43,
        "state": "Texas"
    },
    {
        "name": "Albuquerque",
        "latitude": 35.1054,
        "longitude": -106.6465,
        "state": "New Mexico"
    },
    {
        "name": "Rochester",
        "latitude": 43.168,
        "longitude": -77.6162,
        "state": "New York"
    },
    {
        "name": "Sarasota",
        "latitude": 27.3387,
        "longitude": -82.5432,
        "state": "Florida"
    },
    {
        "name": "Fresno",
        "latitude": 36.783,
        "longitude": -119.7939,
        "state": "California"
    },
    {
        "name": "Tulsa",
        "latitude": 36.1283,
        "longitude": -95.9042,
        "state": "Oklahoma"
    },
    {
        "name": "Allentown",
        "latitude": 40.5961,
        "longitude": -75.4756,
        "state": "Pennsylvania"
    },
    {
        "name": "Dayton",
        "latitude": 39.7805,
        "longitude": -84.2003,
        "state": "Ohio"
    },
    {
        "name": "Birmingham",
        "latitude": 33.5279,
        "longitude": -86.7971,
        "state": "Alabama"
    },
    {
        "name": "Charleston",
        "latitude": 32.8168,
        "longitude": -79.9687,
        "state": "South Carolina"
    },
    {
        "name": "Cape Coral",
        "latitude": 26.6443,
        "longitude": -81.9957,
        "state": "Florida"
    },
    {
        "name": "Columbia",
        "latitude": 34.0378,
        "longitude": -80.9036,
        "state": "South Carolina"
    },
    {
        "name": "Concord",
        "latitude": 37.9722,
        "longitude": -122.0016,
        "state": "California"
    },
    {
        "name": "Colorado Springs",
        "latitude": 38.8674,
        "longitude": -104.7605,
        "state": "Colorado"
    },
    {
        "name": "Springfield",
        "latitude": 42.1155,
        "longitude": -72.5395,
        "state": "Massachusetts"
    },
    {
        "name": "Knoxville",
        "latitude": 35.9692,
        "longitude": -83.9496,
        "state": "Tennessee"
    },
    {
        "name": "Baton Rouge",
        "latitude": 30.442,
        "longitude": -91.1311,
        "state": "Louisiana"
    },
    {
        "name": "Ogden",
        "latitude": 41.2279,
        "longitude": -111.9682,
        "state": "Utah"
    },
    {
        "name": "Grand Rapids",
        "latitude": 42.9619,
        "longitude": -85.6562,
        "state": "Michigan"
    },
    {
        "name": "Albany",
        "latitude": 42.6664,
        "longitude": -73.7987,
        "state": "New York"
    },
    {
        "name": "Bakersfield",
        "latitude": 35.3529,
        "longitude": -119.0359,
        "state": "California"
    },
    {
        "name": "Mission Viejo",
        "latitude": 33.6096,
        "longitude": -117.6551,
        "state": "California"
    },
    {
        "name": "New Haven",
        "latitude": 41.3113,
        "longitude": -72.9246,
        "state": "Connecticut"
    },
    {
        "name": "Worcester",
        "latitude": 42.2705,
        "longitude": -71.8079,
        "state": "Massachusetts"
    },
    {
        "name": "Provo",
        "latitude": 40.2457,
        "longitude": -111.6457,
        "state": "Utah"
    },
    {
        "name": "Akron",
        "latitude": 41.0798,
        "longitude": -81.5219,
        "state": "Ohio"
    },
    {
        "name": "Palm Bay",
        "latitude": 27.9631,
        "longitude": -80.6593,
        "state": "Florida"
    },
    {
        "name": "Des Moines",
        "latitude": 41.5725,
        "longitude": -93.6105,
        "state": "Iowa"
    },
    {
        "name": "Murrieta",
        "latitude": 33.5719,
        "longitude": -117.1909,
        "state": "California"
    },
    {
        "name": "Mesa",
        "latitude": 33.4015,
        "longitude": -111.7178,
        "state": "Arizona"
    },
    {
        "name": "Staten Island",
        "latitude": 40.5834,
        "longitude": -74.1496,
        "state": "New York"
    },
    {
        "name": "Wichita",
        "latitude": 37.6895,
        "longitude": -97.3443,
        "state": "Kansas"
    },
    {
        "name": "Toledo",
        "latitude": 41.6638,
        "longitude": -83.5827,
        "state": "Ohio"
    },
    {
        "name": "Harrisburg",
        "latitude": 40.2752,
        "longitude": -76.8843,
        "state": "Pennsylvania"
    },
    {
        "name": "Port St. Lucie",
        "latitude": 27.2796,
        "longitude": -80.3884,
        "state": "Florida"
    },
    {
        "name": "Long Beach",
        "latitude": 33.7977,
        "longitude": -118.167,
        "state": "California"
    },
    {
        "name": "Reno",
        "latitude": 39.5497,
        "longitude": -119.8483,
        "state": "Nevada"
    },
    {
        "name": "Madison",
        "latitude": 43.0822,
        "longitude": -89.393,
        "state": "Wisconsin"
    },
    {
        "name": "Little Rock",
        "latitude": 34.7256,
        "longitude": -92.3577,
        "state": "Arkansas"
    },
    {
        "name": "Greenville",
        "latitude": 34.8354,
        "longitude": -82.3646,
        "state": "South Carolina"
    },
    {
        "name": "Denton",
        "latitude": 33.2175,
        "longitude": -97.1418,
        "state": "Texas"
    },
    {
        "name": "Spokane",
        "latitude": 47.6671,
        "longitude": -117.433,
        "state": "Washington"
    },
    {
        "name": "Oakland",
        "latitude": 37.7904,
        "longitude": -122.2166,
        "state": "California"
    },
    {
        "name": "Poughkeepsie",
        "latitude": 41.695,
        "longitude": -73.9211,
        "state": "New York"
    },
    {
        "name": "Boise",
        "latitude": 43.6005,
        "longitude": -116.2308,
        "state": "Idaho"
    },
    {
        "name": "Winston-Salem",
        "latitude": 36.1029,
        "longitude": -80.261,
        "state": "North Carolina"
    },
    {
        "name": "Syracuse",
        "latitude": 43.0407,
        "longitude": -76.1437,
        "state": "New York"
    },
    {
        "name": "Augusta",
        "latitude": 33.3645,
        "longitude": -82.0708,
        "state": "Georgia"
    },
    {
        "name": "Stockton",
        "latitude": 37.9765,
        "longitude": -121.3109,
        "state": "California"
    },
    {
        "name": "Palm Coast",
        "latitude": 29.5389,
        "longitude": -81.2457,
        "state": "Florida"
    },
    {
        "name": "Chattanooga",
        "latitude": 35.066,
        "longitude": -85.2481,
        "state": "Tennessee"
    },
    {
        "name": "Kissimmee",
        "latitude": 28.3041,
        "longitude": -81.4169,
        "state": "Florida"
    },
    {
        "name": "Durham",
        "latitude": 35.9792,
        "longitude": -78.9022,
        "state": "North Carolina"
    },
    {
        "name": "Victorville",
        "latitude": 34.5277,
        "longitude": -117.3536,
        "state": "California"
    },
    {
        "name": "Aurora",
        "latitude": 39.7083,
        "longitude": -104.7237,
        "state": "Colorado"
    },
    {
        "name": "Modesto",
        "latitude": 37.6375,
        "longitude": -121.0028,
        "state": "California"
    },
    {
        "name": "Scranton",
        "latitude": 41.4044,
        "longitude": -75.6649,
        "state": "Pennsylvania"
    },
    {
        "name": "Oxnard",
        "latitude": 34.1964,
        "longitude": -119.1815,
        "state": "California"
    },
    {
        "name": "Youngstown",
        "latitude": 41.0993,
        "longitude": -80.6463,
        "state": "Ohio"
    },
    {
        "name": "Indio",
        "latitude": 33.7346,
        "longitude": -116.2346,
        "state": "California"
    },
    {
        "name": "Pensacola",
        "latitude": 30.4413,
        "longitude": -87.1911,
        "state": "Florida"
    },
    {
        "name": "Anaheim",
        "latitude": 33.839,
        "longitude": -117.8574,
        "state": "California"
    },
    {
        "name": "Bonita Springs",
        "latitude": 26.3558,
        "longitude": -81.7859,
        "state": "Florida"
    },
    {
        "name": "Greensboro",
        "latitude": 36.0956,
        "longitude": -79.8271,
        "state": "North Carolina"
    },
    {
        "name": "Huntsville",
        "latitude": 34.6981,
        "longitude": -86.6412,
        "state": "Alabama"
    },
    {
        "name": "Corpus Christi",
        "latitude": 27.7254,
        "longitude": -97.3767,
        "state": "Texas"
    },
    {
        "name": "Fort Wayne",
        "latitude": 41.0888,
        "longitude": -85.1436,
        "state": "Indiana"
    },
    {
        "name": "Ann Arbor",
        "latitude": 42.2759,
        "longitude": -83.731,
        "state": "Michigan"
    },
    {
        "name": "Jackson",
        "latitude": 32.3157,
        "longitude": -90.2125,
        "state": "Mississippi"
    },
    {
        "name": "Antioch",
        "latitude": 37.9787,
        "longitude": -121.796,
        "state": "California"
    },
    {
        "name": "Mobile",
        "latitude": 30.6782,
        "longitude": -88.1162,
        "state": "Alabama"
    },
    {
        "name": "Lexington",
        "latitude": 38.0423,
        "longitude": -84.4587,
        "state": "Kentucky"
    },
    {
        "name": "Asheville",
        "latitude": 35.5707,
        "longitude": -82.5537,
        "state": "North Carolina"
    },
    {
        "name": "Trenton",
        "latitude": 40.2237,
        "longitude": -74.7641,
        "state": "New Jersey"
    },
    {
        "name": "Santa Rosa",
        "latitude": 38.4458,
        "longitude": -122.7067,
        "state": "California"
    },
    {
        "name": "Santa Ana",
        "latitude": 33.7367,
        "longitude": -117.8819,
        "state": "California"
    },
    {
        "name": "Lansing",
        "latitude": 42.7142,
        "longitude": -84.5601,
        "state": "Michigan"
    },
    {
        "name": "Henderson",
        "latitude": 36.0133,
        "longitude": -115.0381,
        "state": "Nevada"
    },
    {
        "name": "St. Paul",
        "latitude": 44.9478,
        "longitude": -93.1039,
        "state": "Minnesota"
    },
    {
        "name": "Lakeland",
        "latitude": 28.0557,
        "longitude": -81.9545,
        "state": "Florida"
    },
    {
        "name": "Newark",
        "latitude": 40.7245,
        "longitude": -74.1725,
        "state": "New Jersey"
    },
    {
        "name": "Fort Collins",
        "latitude": 40.5477,
        "longitude": -105.0656,
        "state": "Colorado"
    },
    {
        "name": "Reading",
        "latitude": 40.34,
        "longitude": -75.9267,
        "state": "Pennsylvania"
    },
    {
        "name": "Irvine",
        "latitude": 33.6772,
        "longitude": -117.7738,
        "state": "California"
    },
    {
        "name": "The Woodlands",
        "latitude": 30.1738,
        "longitude": -95.5134,
        "state": "Texas"
    },
    {
        "name": "South Bend",
        "latitude": 41.6767,
        "longitude": -86.2696,
        "state": "Indiana"
    },
    {
        "name": "Rockford",
        "latitude": 42.2596,
        "longitude": -89.064,
        "state": "Illinois"
    },
    {
        "name": "Savannah",
        "latitude": 32.0286,
        "longitude": -81.1821,
        "state": "Georgia"
    },
    {
        "name": "Lincoln",
        "latitude": 40.8099,
        "longitude": -96.6784,
        "state": "Nebraska"
    },
    {
        "name": "Jersey City",
        "latitude": 40.7184,
        "longitude": -74.0686,
        "state": "New Jersey"
    },
    {
        "name": "Round Lake Beach",
        "latitude": 42.3791,
        "longitude": -88.0811,
        "state": "Illinois"
    },
    {
        "name": "Flint",
        "latitude": 43.0236,
        "longitude": -83.6921,
        "state": "Michigan"
    },
    {
        "name": "Shreveport",
        "latitude": 32.4653,
        "longitude": -93.7955,
        "state": "Louisiana"
    },
    {
        "name": "Plano",
        "latitude": 33.0502,
        "longitude": -96.7486,
        "state": "Texas"
    },
    {
        "name": "Myrtle Beach",
        "latitude": 33.7094,
        "longitude": -78.8844,
        "state": "South Carolina"
    },
    {
        "name": "Davenport",
        "latitude": 41.5565,
        "longitude": -90.6053,
        "state": "Iowa"
    },
    {
        "name": "Canton",
        "latitude": 40.8078,
        "longitude": -81.3676,
        "state": "Ohio"
    },
    {
        "name": "Santa Clarita",
        "latitude": 34.4175,
        "longitude": -118.4964,
        "state": "California"
    },
    {
        "name": "Chula Vista",
        "latitude": 32.6281,
        "longitude": -117.0144,
        "state": "California"
    },
    {
        "name": "Eugene",
        "latitude": 44.0564,
        "longitude": -123.1174,
        "state": "Oregon"
    },
    {
        "name": "Chandler",
        "latitude": 33.2825,
        "longitude": -111.8514,
        "state": "Arizona"
    },
    {
        "name": "Salem",
        "latitude": 44.9233,
        "longitude": -123.0244,
        "state": "Oregon"
    },
    {
        "name": "Gilbert",
        "latitude": 33.31,
        "longitude": -111.7463,
        "state": "Arizona"
    },
    {
        "name": "Lubbock",
        "latitude": 33.5657,
        "longitude": -101.8879,
        "state": "Texas"
    },
    {
        "name": "North Las Vegas",
        "latitude": 36.2883,
        "longitude": -115.0888,
        "state": "Nevada"
    },
    {
        "name": "St. Petersburg",
        "latitude": 27.7931,
        "longitude": -82.6652,
        "state": "Florida"
    },
    {
        "name": "Tallahassee",
        "latitude": 30.4551,
        "longitude": -84.2527,
        "state": "Florida"
    },
    {
        "name": "Laredo",
        "latitude": 27.5625,
        "longitude": -99.4874,
        "state": "Texas"
    },
    {
        "name": "Avondale",
        "latitude": 33.3873,
        "longitude": -112.3235,
        "state": "Arizona"
    },
    {
        "name": "Irving",
        "latitude": 32.8583,
        "longitude": -96.9702,
        "state": "Texas"
    },
    {
        "name": "Montgomery",
        "latitude": 32.3482,
        "longitude": -86.2668,
        "state": "Alabama"
    },
    {
        "name": "Visalia",
        "latitude": 36.3276,
        "longitude": -119.3269,
        "state": "California"
    },
    {
        "name": "McKinney",
        "latitude": 33.2016,
        "longitude": -96.667,
        "state": "Texas"
    },
    {
        "name": "Wilmington",
        "latitude": 34.2099,
        "longitude": -77.8866,
        "state": "North Carolina"
    },
    {
        "name": "Chesapeake",
        "latitude": 36.6778,
        "longitude": -76.3023,
        "state": "Virginia"
    },
    {
        "name": "Garland",
        "latitude": 32.91,
        "longitude": -96.6304,
        "state": "Texas"
    },
    {
        "name": "Kennewick",
        "latitude": 46.1978,
        "longitude": -119.1732,
        "state": "Washington"
    },
    {
        "name": "Winter Haven",
        "latitude": 28.0118,
        "longitude": -81.7014,
        "state": "Florida"
    },
    {
        "name": "Scottsdale",
        "latitude": 33.6872,
        "longitude": -111.8651,
        "state": "Arizona"
    },
    {
        "name": "Norfolk",
        "latitude": 36.8945,
        "longitude": -76.259,
        "state": "Virginia"
    },
    {
        "name": "Killeen",
        "latitude": 31.0753,
        "longitude": -97.7297,
        "state": "Texas"
    },
    {
        "name": "York",
        "latitude": 39.9651,
        "longitude": -76.7315,
        "state": "Pennsylvania"
    },
    {
        "name": "Atlantic City",
        "latitude": 39.3797,
        "longitude": -74.4527,
        "state": "New Jersey"
    },
    {
        "name": "Nashua",
        "latitude": 42.7491,
        "longitude": -71.491,
        "state": "New Hampshire"
    },
    {
        "name": "Brownsville",
        "latitude": 25.9975,
        "longitude": -97.458,
        "state": "Texas"
    },
    {
        "name": "Fremont",
        "latitude": 37.5265,
        "longitude": -121.9843,
        "state": "California"
    },
    {
        "name": "Gulfport",
        "latitude": 30.4274,
        "longitude": -89.0704,
        "state": "Mississippi"
    },
    {
        "name": "Evansville",
        "latitude": 37.9881,
        "longitude": -87.5341,
        "state": "Indiana"
    },
    {
        "name": "Hialeah",
        "latitude": 25.8696,
        "longitude": -80.3045,
        "state": "Florida"
    },
    {
        "name": "Navarre",
        "latitude": 30.4174,
        "longitude": -86.8907,
        "state": "Florida"
    },
    {
        "name": "Bel Air South",
        "latitude": 39.5022,
        "longitude": -76.3113,
        "state": "Maryland"
    },
    {
        "name": "North Port",
        "latitude": 27.0576,
        "longitude": -82.1977,
        "state": "Florida"
    },
    {
        "name": "San Bernardino",
        "latitude": 34.1416,
        "longitude": -117.2943,
        "state": "California"
    },
    {
        "name": "Enterprise",
        "latitude": 36.0091,
        "longitude": -115.2278,
        "state": "Nevada"
    },
    {
        "name": "Bremerton",
        "latitude": 47.5436,
        "longitude": -122.7121,
        "state": "Washington"
    },
    {
        "name": "Green Bay",
        "latitude": 44.5148,
        "longitude": -87.9895,
        "state": "Wisconsin"
    },
    {
        "name": "Appleton",
        "latitude": 44.278,
        "longitude": -88.3892,
        "state": "Wisconsin"
    },
    {
        "name": "Spring Valley",
        "latitude": 36.0952,
        "longitude": -115.2636,
        "state": "Nevada"
    },
    {
        "name": "Tacoma",
        "latitude": 47.2431,
        "longitude": -122.4531,
        "state": "Washington"
    },
    {
        "name": "Spartanburg",
        "latitude": 34.9442,
        "longitude": -81.9251,
        "state": "South Carolina"
    },
    {
        "name": "Roanoke",
        "latitude": 37.2785,
        "longitude": -79.9581,
        "state": "Virginia"
    },
    {
        "name": "Deltona",
        "latitude": 28.905,
        "longitude": -81.2137,
        "state": "Florida"
    },
    {
        "name": "Kalamazoo",
        "latitude": 42.2749,
        "longitude": -85.5882,
        "state": "Michigan"
    },
    {
        "name": "Thousand Oaks",
        "latitude": 34.1914,
        "longitude": -118.8756,
        "state": "California"
    },
    {
        "name": "Hickory",
        "latitude": 35.741,
        "longitude": -81.3223,
        "state": "North Carolina"
    },
    {
        "name": "Yonkers",
        "latitude": 40.9466,
        "longitude": -73.8673,
        "state": "New York"
    },
    {
        "name": "Moreno Valley",
        "latitude": 33.9244,
        "longitude": -117.2045,
        "state": "California"
    },
    {
        "name": "Fontana",
        "latitude": 34.0968,
        "longitude": -117.4599,
        "state": "California"
    },
    {
        "name": "College Station",
        "latitude": 30.5852,
        "longitude": -96.2959,
        "state": "Texas"
    },
    {
        "name": "Fargo",
        "latitude": 46.8651,
        "longitude": -96.8292,
        "state": "North Dakota"
    },
    {
        "name": "Amarillo",
        "latitude": 35.1984,
        "longitude": -101.8316,
        "state": "Texas"
    },
    {
        "name": "Norwich",
        "latitude": 41.5495,
        "longitude": -72.0882,
        "state": "Connecticut"
    },
    {
        "name": "Olympia",
        "latitude": 47.0417,
        "longitude": -122.8959,
        "state": "Washington"
    },
    {
        "name": "Waterbury",
        "latitude": 41.5582,
        "longitude": -73.0361,
        "state": "Connecticut"
    },
    {
        "name": "Salinas",
        "latitude": 36.6883,
        "longitude": -121.6317,
        "state": "California"
    },
    {
        "name": "Huntington",
        "latitude": 38.4109,
        "longitude": -82.4345,
        "state": "West Virginia"
    },
    {
        "name": "Huntington Beach",
        "latitude": 33.696,
        "longitude": -118.0018,
        "state": "California"
    },
    {
        "name": "Clarksville",
        "latitude": 36.5692,
        "longitude": -87.3413,
        "state": "Tennessee"
    },
    {
        "name": "Santa Barbara",
        "latitude": 34.4285,
        "longitude": -119.7202,
        "state": "California"
    },
    {
        "name": "Sunrise Manor",
        "latitude": 36.1783,
        "longitude": -115.0487,
        "state": "Nevada"
    },
    {
        "name": "Grand Prairie",
        "latitude": 32.6871,
        "longitude": -97.0208,
        "state": "Texas"
    },
    {
        "name": "Overland Park",
        "latitude": 38.887,
        "longitude": -94.687,
        "state": "Kansas"
    },
    {
        "name": "Hagerstown",
        "latitude": 39.6401,
        "longitude": -77.7217,
        "state": "Maryland"
    },
    {
        "name": "Nampa",
        "latitude": 43.5844,
        "longitude": -116.5638,
        "state": "Idaho"
    },
    {
        "name": "Gastonia",
        "latitude": 35.2494,
        "longitude": -81.1854,
        "state": "North Carolina"
    },
    {
        "name": "Frisco",
        "latitude": 33.156,
        "longitude": -96.8216,
        "state": "Texas"
    },
    {
        "name": "Cedar Rapids",
        "latitude": 41.9662,
        "longitude": -91.6783,
        "state": "Iowa"
    },
    {
        "name": "Hemet",
        "latitude": 33.7341,
        "longitude": -116.9969,
        "state": "California"
    },
    {
        "name": "Paradise",
        "latitude": 36.0872,
        "longitude": -115.1355,
        "state": "Nevada"
    },
    {
        "name": "Sioux Falls",
        "latitude": 43.5396,
        "longitude": -96.7311,
        "state": "South Dakota"
    },
    {
        "name": "Vancouver",
        "latitude": 45.6366,
        "longitude": -122.5967,
        "state": "Washington"
    },
    {
        "name": "Waco",
        "latitude": 31.5599,
        "longitude": -97.1882,
        "state": "Texas"
    },
    {
        "name": "Lorain",
        "latitude": 41.4409,
        "longitude": -82.184,
        "state": "Ohio"
    },
    {
        "name": "Erie",
        "latitude": 42.1167,
        "longitude": -80.0733,
        "state": "Pennsylvania"
    },
    {
        "name": "Newport News",
        "latitude": 37.1051,
        "longitude": -76.5185,
        "state": "Virginia"
    },
    {
        "name": "Fort Lauderdale",
        "latitude": 26.1412,
        "longitude": -80.1464,
        "state": "Florida"
    },
    {
        "name": "Vallejo",
        "latitude": 38.1125,
        "longitude": -122.2342,
        "state": "California"
    },
    {
        "name": "Murfreesboro",
        "latitude": 35.849,
        "longitude": -86.4121,
        "state": "Tennessee"
    },
    {
        "name": "Spring Hill",
        "latitude": 28.4798,
        "longitude": -82.53,
        "state": "Florida"
    },
    {
        "name": "Tempe",
        "latitude": 33.3881,
        "longitude": -111.9319,
        "state": "Arizona"
    },
    {
        "name": "High Point",
        "latitude": 35.991,
        "longitude": -79.9937,
        "state": "North Carolina"
    },
    {
        "name": "Medford",
        "latitude": 42.3372,
        "longitude": -122.854,
        "state": "Oregon"
    },
    {
        "name": "Danbury",
        "latitude": 41.4015,
        "longitude": -73.4709,
        "state": "Connecticut"
    },
    {
        "name": "Elk Grove",
        "latitude": 38.4161,
        "longitude": -121.3842,
        "state": "California"
    },
    {
        "name": "Ontario",
        "latitude": 34.0393,
        "longitude": -117.6064,
        "state": "California"
    },
    {
        "name": "Frederick",
        "latitude": 39.4337,
        "longitude": -77.4141,
        "state": "Maryland"
    },
    {
        "name": "Vero Beach South",
        "latitude": 27.6132,
        "longitude": -80.4163,
        "state": "Florida"
    },
    {
        "name": "Ocala",
        "latitude": 29.178,
        "longitude": -82.1511,
        "state": "Florida"
    },
    {
        "name": "Oceanside",
        "latitude": 33.2247,
        "longitude": -117.3083,
        "state": "California"
    },
    {
        "name": "Rancho Cucamonga",
        "latitude": 34.1247,
        "longitude": -117.5667,
        "state": "California"
    },
    {
        "name": "Garden Grove",
        "latitude": 33.7787,
        "longitude": -117.9601,
        "state": "California"
    },
    {
        "name": "Cary",
        "latitude": 35.7819,
        "longitude": -78.8195,
        "state": "North Carolina"
    },
    {
        "name": "Pembroke Pines",
        "latitude": 26.0128,
        "longitude": -80.3382,
        "state": "Florida"
    },
    {
        "name": "Palmdale",
        "latitude": 34.5944,
        "longitude": -118.1057,
        "state": "California"
    },
    {
        "name": "Manchester",
        "latitude": 42.9848,
        "longitude": -71.4447,
        "state": "New Hampshire"
    },
    {
        "name": "Santa Cruz",
        "latitude": 36.9789,
        "longitude": -122.0346,
        "state": "California"
    },
    {
        "name": "Marysville",
        "latitude": 48.0809,
        "longitude": -122.1561,
        "state": "Washington"
    },
    {
        "name": "Muskegon",
        "latitude": 43.2281,
        "longitude": -86.2562,
        "state": "Michigan"
    },
    {
        "name": "Hayward",
        "latitude": 37.6328,
        "longitude": -122.0766,
        "state": "California"
    },
    {
        "name": "New Bedford",
        "latitude": 41.6697,
        "longitude": -70.9428,
        "state": "Massachusetts"
    },
    {
        "name": "Alexandria",
        "latitude": 38.8185,
        "longitude": -77.0861,
        "state": "Virginia"
    },
    {
        "name": "Paterson",
        "latitude": 40.9147,
        "longitude": -74.1624,
        "state": "New Jersey"
    },
    {
        "name": "Corona",
        "latitude": 33.8616,
        "longitude": -117.5649,
        "state": "California"
    },
    {
        "name": "Merced",
        "latitude": 37.3057,
        "longitude": -120.4779,
        "state": "California"
    },
    {
        "name": "Warner Robins",
        "latitude": 32.5961,
        "longitude": -83.6527,
        "state": "Georgia"
    },
    {
        "name": "Port Arthur",
        "latitude": 29.8554,
        "longitude": -93.9264,
        "state": "Texas"
    },
    {
        "name": "Macon",
        "latitude": 32.8065,
        "longitude": -83.6974,
        "state": "Georgia"
    },
    {
        "name": "Sunnyvale",
        "latitude": 37.3836,
        "longitude": -122.0255,
        "state": "California"
    },
    {
        "name": "Fredericksburg",
        "latitude": 38.2992,
        "longitude": -77.4872,
        "state": "Virginia"
    },
    {
        "name": "Leesburg",
        "latitude": 28.7672,
        "longitude": -81.8962,
        "state": "Florida"
    },
    {
        "name": "Champaign",
        "latitude": 40.1142,
        "longitude": -88.2737,
        "state": "Illinois"
    },
    {
        "name": "Hollywood",
        "latitude": 26.0293,
        "longitude": -80.1679,
        "state": "Florida"
    },
    {
        "name": "Pomona",
        "latitude": 34.0585,
        "longitude": -117.7626,
        "state": "California"
    },
    {
        "name": "Escondido",
        "latitude": 33.1348,
        "longitude": -117.0723,
        "state": "California"
    },
    {
        "name": "Joliet",
        "latitude": 41.5188,
        "longitude": -88.1499,
        "state": "Illinois"
    },
    {
        "name": "Lake Charles",
        "latitude": 30.201,
        "longitude": -93.2111,
        "state": "Louisiana"
    },
    {
        "name": "Mesquite",
        "latitude": 32.7602,
        "longitude": -96.5865,
        "state": "Texas"
    },
    {
        "name": "Mauldin",
        "latitude": 34.7821,
        "longitude": -82.3032,
        "state": "South Carolina"
    },
    {
        "name": "Panama City",
        "latitude": 30.1995,
        "longitude": -85.6003,
        "state": "Florida"
    },
    {
        "name": "Bellevue",
        "latitude": 47.5951,
        "longitude": -122.1535,
        "state": "Washington"
    },
    {
        "name": "Naperville",
        "latitude": 41.748,
        "longitude": -88.1659,
        "state": "Illinois"
    },
    {
        "name": "Harlingen",
        "latitude": 26.1916,
        "longitude": -97.6977,
        "state": "Texas"
    },
    {
        "name": "Tuscaloosa",
        "latitude": 33.2348,
        "longitude": -87.5268,
        "state": "Alabama"
    },
    {
        "name": "Elkhart",
        "latitude": 41.6916,
        "longitude": -85.9627,
        "state": "Indiana"
    },
    {
        "name": "Torrance",
        "latitude": 33.8346,
        "longitude": -118.3416,
        "state": "California"
    },
    {
        "name": "Binghamton",
        "latitude": 42.1014,
        "longitude": -75.9093,
        "state": "New York"
    },
    {
        "name": "Houma",
        "latitude": 29.58,
        "longitude": -90.7059,
        "state": "Louisiana"
    },
    {
        "name": "Topeka",
        "latitude": 39.0346,
        "longitude": -95.6955,
        "state": "Kansas"
    },
    {
        "name": "Roseville",
        "latitude": 38.7703,
        "longitude": -121.3196,
        "state": "California"
    },
    {
        "name": "Fairfield",
        "latitude": 38.2583,
        "longitude": -122.0335,
        "state": "California"
    },
    {
        "name": "Tyler",
        "latitude": 32.3184,
        "longitude": -95.3062,
        "state": "Texas"
    },
    {
        "name": "Fullerton",
        "latitude": 33.8841,
        "longitude": -117.9279,
        "state": "California"
    },
    {
        "name": "Pueblo",
        "latitude": 38.2701,
        "longitude": -104.6114,
        "state": "Colorado"
    },
    {
        "name": "Athens",
        "latitude": 33.9508,
        "longitude": -83.3689,
        "state": "Georgia"
    },
    {
        "name": "Santa Maria",
        "latitude": 34.9333,
        "longitude": -120.4431,
        "state": "California"
    },
    {
        "name": "Surprise",
        "latitude": 33.6815,
        "longitude": -112.4515,
        "state": "Arizona"
    },
    {
        "name": "Las Cruces",
        "latitude": 32.3265,
        "longitude": -106.7893,
        "state": "New Mexico"
    },
    {
        "name": "Metairie",
        "latitude": 29.9977,
        "longitude": -90.178,
        "state": "Louisiana"
    },
    {
        "name": "Thornton",
        "latitude": 39.9197,
        "longitude": -104.9438,
        "state": "Colorado"
    },
    {
        "name": "Olathe",
        "latitude": 38.8833,
        "longitude": -94.82,
        "state": "Kansas"
    },
    {
        "name": "West Valley City",
        "latitude": 40.6886,
        "longitude": -112.0123,
        "state": "Utah"
    },
    {
        "name": "Orange",
        "latitude": 33.8038,
        "longitude": -117.8218,
        "state": "California"
    },
    {
        "name": "Warren",
        "latitude": 42.4934,
        "longitude": -83.027,
        "state": "Michigan"
    },
    {
        "name": "Beaumont",
        "latitude": 30.0849,
        "longitude": -94.1451,
        "state": "Texas"
    },
    {
        "name": "Hampton",
        "latitude": 37.0551,
        "longitude": -76.363,
        "state": "Virginia"
    },
    {
        "name": "Yuma",
        "latitude": 32.5995,
        "longitude": -114.5491,
        "state": "Arizona"
    },
    {
        "name": "Elizabeth",
        "latitude": 40.6658,
        "longitude": -74.1913,
        "state": "New Jersey"
    },
    {
        "name": "Racine",
        "latitude": 42.7274,
        "longitude": -87.8135,
        "state": "Wisconsin"
    },
    {
        "name": "Greeley",
        "latitude": 40.4152,
        "longitude": -104.7706,
        "state": "Colorado"
    },
    {
        "name": "Kent",
        "latitude": 47.3887,
        "longitude": -122.2128,
        "state": "Washington"
    },
    {
        "name": "Stamford",
        "latitude": 41.1039,
        "longitude": -73.5585,
        "state": "Connecticut"
    },
    {
        "name": "Odessa",
        "latitude": 31.8801,
        "longitude": -102.3448,
        "state": "Texas"
    },
    {
        "name": "Miramar",
        "latitude": 25.9773,
        "longitude": -80.3351,
        "state": "Florida"
    },
    {
        "name": "Grand Junction",
        "latitude": 39.0877,
        "longitude": -108.5673,
        "state": "Colorado"
    },
    {
        "name": "Sterling Heights",
        "latitude": 42.5809,
        "longitude": -83.0305,
        "state": "Michigan"
    },
    {
        "name": "Coral Springs",
        "latitude": 26.2702,
        "longitude": -80.2591,
        "state": "Florida"
    },
    {
        "name": "Johnson City",
        "latitude": 36.3406,
        "longitude": -82.3806,
        "state": "Tennessee"
    },
    {
        "name": "Carrollton",
        "latitude": 32.989,
        "longitude": -96.8999,
        "state": "Texas"
    },
    {
        "name": "Midland",
        "latitude": 32.0243,
        "longitude": -102.1147,
        "state": "Texas"
    },
    {
        "name": "Yakima",
        "latitude": 46.5923,
        "longitude": -120.5496,
        "state": "Washington"
    },
    {
        "name": "Bellingham",
        "latitude": 48.7548,
        "longitude": -122.469,
        "state": "Washington"
    },
    {
        "name": "Yuba City",
        "latitude": 39.1357,
        "longitude": -121.6383,
        "state": "California"
    },
    {
        "name": "South Lyon",
        "latitude": 42.4614,
        "longitude": -83.6526,
        "state": "Michigan"
    },
    {
        "name": "Santa Clara",
        "latitude": 37.3646,
        "longitude": -121.968,
        "state": "California"
    },
    {
        "name": "St. George",
        "latitude": 37.0758,
        "longitude": -113.5752,
        "state": "Utah"
    },
    {
        "name": "Fort Smith",
        "latitude": 35.3495,
        "longitude": -94.3695,
        "state": "Arkansas"
    },
    {
        "name": "Simi Valley",
        "latitude": 34.2663,
        "longitude": -118.749,
        "state": "California"
    },
    {
        "name": "Norman",
        "latitude": 35.2335,
        "longitude": -97.3471,
        "state": "Oklahoma"
    },
    {
        "name": "Abilene",
        "latitude": 32.4543,
        "longitude": -99.7384,
        "state": "Texas"
    },
    {
        "name": "Billings",
        "latitude": 45.7891,
        "longitude": -108.5526,
        "state": "Montana"
    },
    {
        "name": "Lehigh Acres",
        "latitude": 26.612,
        "longitude": -81.6388,
        "state": "Florida"
    },
    {
        "name": "St. Cloud",
        "latitude": 45.534,
        "longitude": -94.1718,
        "state": "Minnesota"
    },
    {
        "name": "Kenosha",
        "latitude": 42.5865,
        "longitude": -87.8773,
        "state": "Wisconsin"
    },
    {
        "name": "Arvada",
        "latitude": 39.832,
        "longitude": -105.151,
        "state": "Colorado"
    },
    {
        "name": "Pearland",
        "latitude": 29.5581,
        "longitude": -95.3218,
        "state": "Texas"
    },
    {
        "name": "Independence",
        "latitude": 39.0871,
        "longitude": -94.3501,
        "state": "Missouri"
    },
    {
        "name": "Texas City",
        "latitude": 29.4154,
        "longitude": -94.9682,
        "state": "Texas"
    },
    {
        "name": "Redding",
        "latitude": 40.5698,
        "longitude": -122.365,
        "state": "California"
    },
    {
        "name": "Lynchburg",
        "latitude": 37.4003,
        "longitude": -79.1909,
        "state": "Virginia"
    },
    {
        "name": "Boulder",
        "latitude": 40.0248,
        "longitude": -105.2524,
        "state": "Colorado"
    },
    {
        "name": "Iowa City",
        "latitude": 41.6559,
        "longitude": -91.5303,
        "state": "Iowa"
    },
    {
        "name": "Berkeley",
        "latitude": 37.8722,
        "longitude": -122.276,
        "state": "California"
    },
    {
        "name": "Waldorf",
        "latitude": 38.6085,
        "longitude": -76.9194,
        "state": "Maryland"
    },
    {
        "name": "The Villages",
        "latitude": 28.9034,
        "longitude": -81.9887,
        "state": "Florida"
    },
    {
        "name": "Duluth",
        "latitude": 46.7756,
        "longitude": -92.1393,
        "state": "Minnesota"
    },
    {
        "name": "East Los Angeles",
        "latitude": 34.0326,
        "longitude": -118.1691,
        "state": "California"
    },
    {
        "name": "Saginaw",
        "latitude": 43.4199,
        "longitude": -83.9501,
        "state": "Michigan"
    },
    {
        "name": "Clovis",
        "latitude": 36.8278,
        "longitude": -119.683,
        "state": "California"
    },
    {
        "name": "Leominster",
        "latitude": 42.5209,
        "longitude": -71.7717,
        "state": "Massachusetts"
    },
    {
        "name": "Round Rock",
        "latitude": 30.527,
        "longitude": -97.6642,
        "state": "Texas"
    },
    {
        "name": "Monroe",
        "latitude": 32.5185,
        "longitude": -92.0774,
        "state": "Louisiana"
    },
    {
        "name": "Cambridge",
        "latitude": 42.3759,
        "longitude": -71.1185,
        "state": "Massachusetts"
    },
    {
        "name": "Clearwater",
        "latitude": 27.979,
        "longitude": -82.7623,
        "state": "Florida"
    },
    {
        "name": "Seaside",
        "latitude": 36.6224,
        "longitude": -121.8199,
        "state": "California"
    },
    {
        "name": "West Jordan",
        "latitude": 40.6024,
        "longitude": -112.0008,
        "state": "Utah"
    },
    {
        "name": "Richardson",
        "latitude": 32.9716,
        "longitude": -96.7093,
        "state": "Texas"
    },
    {
        "name": "West Palm Beach",
        "latitude": 26.7469,
        "longitude": -80.132,
        "state": "Florida"
    },
    {
        "name": "Temple",
        "latitude": 31.1068,
        "longitude": -97.3891,
        "state": "Texas"
    },
    {
        "name": "Pottstown",
        "latitude": 40.2508,
        "longitude": -75.6445,
        "state": "Pennsylvania"
    },
    {
        "name": "Brandon",
        "latitude": 27.9367,
        "longitude": -82.3,
        "state": "Florida"
    },
    {
        "name": "Rock Hill",
        "latitude": 34.9415,
        "longitude": -81.0241,
        "state": "South Carolina"
    },
    {
        "name": "Meridian",
        "latitude": 43.6116,
        "longitude": -116.3977,
        "state": "Idaho"
    },
    {
        "name": "Coeur d'Alene",
        "latitude": 47.704,
        "longitude": -116.7936,
        "state": "Idaho"
    },
    {
        "name": "Carlsbad",
        "latitude": 33.1246,
        "longitude": -117.2834,
        "state": "California"
    },
    {
        "name": "Lowell",
        "latitude": 42.6389,
        "longitude": -71.3217,
        "state": "Massachusetts"
    },
    {
        "name": "Waterloo",
        "latitude": 42.4918,
        "longitude": -92.3522,
        "state": "Iowa"
    },
    {
        "name": "North Charleston",
        "latitude": 32.9067,
        "longitude": -80.0722,
        "state": "South Carolina"
    },
    {
        "name": "Gilroy",
        "latitude": 37.0046,
        "longitude": -121.5854,
        "state": "California"
    },
    {
        "name": "Downey",
        "latitude": 33.9379,
        "longitude": -118.1311,
        "state": "California"
    },
    {
        "name": "Gresham",
        "latitude": 45.5021,
        "longitude": -122.4413,
        "state": "Oregon"
    },
    {
        "name": "Elgin",
        "latitude": 42.0383,
        "longitude": -88.324,
        "state": "Illinois"
    },
    {
        "name": "Utica",
        "latitude": 43.0962,
        "longitude": -75.2261,
        "state": "New York"
    },
    {
        "name": "Broken Arrow",
        "latitude": 36.038,
        "longitude": -95.7806,
        "state": "Oklahoma"
    },
    {
        "name": "Costa Mesa",
        "latitude": 33.6667,
        "longitude": -117.9135,
        "state": "California"
    },
    {
        "name": "Chico",
        "latitude": 39.7578,
        "longitude": -121.8161,
        "state": "California"
    },
    {
        "name": "Sioux City",
        "latitude": 42.4959,
        "longitude": -96.3901,
        "state": "Iowa"
    },
    {
        "name": "League City",
        "latitude": 29.4874,
        "longitude": -95.1087,
        "state": "Texas"
    },
    {
        "name": "Miami Gardens",
        "latitude": 25.9433,
        "longitude": -80.2426,
        "state": "Florida"
    },
    {
        "name": "Pompano Beach",
        "latitude": 26.2428,
        "longitude": -80.1312,
        "state": "Florida"
    },
    {
        "name": "San Buenaventura",
        "latitude": 34.2741,
        "longitude": -119.2314,
        "state": "California"
    },
    {
        "name": "Everett",
        "latitude": 47.9525,
        "longitude": -122.1669,
        "state": "Washington"
    },
    {
        "name": "El Centro",
        "latitude": 32.7865,
        "longitude": -115.5595,
        "state": "California"
    },
    {
        "name": "Sugar Land",
        "latitude": 29.5935,
        "longitude": -95.6358,
        "state": "Texas"
    },
    {
        "name": "El Monte",
        "latitude": 34.0739,
        "longitude": -118.0291,
        "state": "California"
    },
    {
        "name": "Lewisville",
        "latitude": 33.0454,
        "longitude": -96.9815,
        "state": "Texas"
    },
    {
        "name": "West Covina",
        "latitude": 34.0555,
        "longitude": -117.9113,
        "state": "California"
    },
    {
        "name": "Temecula",
        "latitude": 33.4928,
        "longitude": -117.1315,
        "state": "California"
    },
    {
        "name": "Bend",
        "latitude": 44.0563,
        "longitude": -121.3095,
        "state": "Oregon"
    },
    {
        "name": "Salisbury",
        "latitude": 38.3756,
        "longitude": -75.5865,
        "state": "Maryland"
    },
    {
        "name": "Inglewood",
        "latitude": 33.9566,
        "longitude": -118.3444,
        "state": "California"
    },
    {
        "name": "Dearborn",
        "latitude": 42.3127,
        "longitude": -83.213,
        "state": "Michigan"
    },
    {
        "name": "Centennial",
        "latitude": 39.5926,
        "longitude": -104.8673,
        "state": "Colorado"
    },
    {
        "name": "Burbank",
        "latitude": 34.1879,
        "longitude": -118.3235,
        "state": "California"
    },
    {
        "name": "Sparks",
        "latitude": 39.5736,
        "longitude": -119.7161,
        "state": "Nevada"
    },
    {
        "name": "Sandy Springs",
        "latitude": 33.9366,
        "longitude": -84.3703,
        "state": "Georgia"
    },
    {
        "name": "Logan",
        "latitude": 41.7399,
        "longitude": -111.8422,
        "state": "Utah"
    },
    {
        "name": "El Cajon",
        "latitude": 32.8017,
        "longitude": -116.9604,
        "state": "California"
    },
    {
        "name": "Hillsboro",
        "latitude": 45.5273,
        "longitude": -122.936,
        "state": "Oregon"
    },
    {
        "name": "South Fulton",
        "latitude": 33.6273,
        "longitude": -84.58,
        "state": "Georgia"
    },
    {
        "name": "Renton",
        "latitude": 47.4784,
        "longitude": -122.1918,
        "state": "Washington"
    },
    {
        "name": "Mandeville",
        "latitude": 30.3751,
        "longitude": -90.0904,
        "state": "Louisiana"
    },
    {
        "name": "San Mateo",
        "latitude": 37.5522,
        "longitude": -122.3121,
        "state": "California"
    },
    {
        "name": "Daly City",
        "latitude": 37.6862,
        "longitude": -122.4685,
        "state": "California"
    },
    {
        "name": "Davie",
        "latitude": 26.0789,
        "longitude": -80.287,
        "state": "Florida"
    },
    {
        "name": "Jurupa Valley",
        "latitude": 34.001,
        "longitude": -117.4706,
        "state": "California"
    },
    {
        "name": "Brockton",
        "latitude": 42.0821,
        "longitude": -71.0242,
        "state": "Massachusetts"
    },
    {
        "name": "Longmont",
        "latitude": 40.1686,
        "longitude": -105.1005,
        "state": "Colorado"
    },
    {
        "name": "Rialto",
        "latitude": 34.1175,
        "longitude": -117.3892,
        "state": "California"
    },
    {
        "name": "Eau Claire",
        "latitude": 44.8197,
        "longitude": -91.4948,
        "state": "Wisconsin"
    },
    {
        "name": "Turlock",
        "latitude": 37.5053,
        "longitude": -120.8588,
        "state": "California"
    },
    {
        "name": "Highlands Ranch",
        "latitude": 39.5419,
        "longitude": -104.9708,
        "state": "Colorado"
    },
    {
        "name": "Allen",
        "latitude": 33.1088,
        "longitude": -96.6735,
        "state": "Texas"
    },
    {
        "name": "Wichita Falls",
        "latitude": 33.9072,
        "longitude": -98.5291,
        "state": "Texas"
    },
    {
        "name": "Rio Rancho",
        "latitude": 35.2873,
        "longitude": -106.6982,
        "state": "New Mexico"
    },
    {
        "name": "Vacaville",
        "latitude": 38.3587,
        "longitude": -121.9673,
        "state": "California"
    },
    {
        "name": "Spokane Valley",
        "latitude": 47.6626,
        "longitude": -117.2346,
        "state": "Washington"
    },
    {
        "name": "Charlottesville",
        "latitude": 38.0375,
        "longitude": -78.4855,
        "state": "Virginia"
    },
    {
        "name": "Idaho Falls",
        "latitude": 43.4871,
        "longitude": -112.0362,
        "state": "Idaho"
    },
    {
        "name": "Menifee",
        "latitude": 33.6909,
        "longitude": -117.1849,
        "state": "California"
    },
    {
        "name": "Lee's Summit",
        "latitude": 38.9171,
        "longitude": -94.3816,
        "state": "Missouri"
    },
    {
        "name": "Quincy",
        "latitude": 42.2506,
        "longitude": -71.0187,
        "state": "Massachusetts"
    },
    {
        "name": "San Angelo",
        "latitude": 31.4424,
        "longitude": -100.4504,
        "state": "Texas"
    },
    {
        "name": "Lynn",
        "latitude": 42.4781,
        "longitude": -70.9664,
        "state": "Massachusetts"
    },
    {
        "name": "Holland",
        "latitude": 42.7677,
        "longitude": -86.0984,
        "state": "Michigan"
    },
    {
        "name": "Federal Way",
        "latitude": 47.3091,
        "longitude": -122.3358,
        "state": "Washington"
    },
    {
        "name": "Manteca",
        "latitude": 37.7927,
        "longitude": -121.2264,
        "state": "California"
    },
    {
        "name": "Santa Fe",
        "latitude": 35.6619,
        "longitude": -105.9819,
        "state": "New Mexico"
    },
    {
        "name": "Hesperia",
        "latitude": 34.3975,
        "longitude": -117.3147,
        "state": "California"
    },
    {
        "name": "La Crosse",
        "latitude": 43.8241,
        "longitude": -91.2268,
        "state": "Wisconsin"
    },
    {
        "name": "Riverview",
        "latitude": 27.8227,
        "longitude": -82.3023,
        "state": "Florida"
    },
    {
        "name": "Kingsport",
        "latitude": 36.5224,
        "longitude": -82.5454,
        "state": "Tennessee"
    },
    {
        "name": "Edinburg",
        "latitude": 26.3196,
        "longitude": -98.1597,
        "state": "Texas"
    },
    {
        "name": "Vista",
        "latitude": 33.1896,
        "longitude": -117.2386,
        "state": "California"
    },
    {
        "name": "Bowling Green",
        "latitude": 36.9716,
        "longitude": -86.4378,
        "state": "Kentucky"
    },
    {
        "name": "Carmel",
        "latitude": 39.965,
        "longitude": -86.146,
        "state": "Indiana"
    },
    {
        "name": "Tracy",
        "latitude": 37.7269,
        "longitude": -121.4523,
        "state": "California"
    },
    {
        "name": "Prescott Valley",
        "latitude": 34.598,
        "longitude": -112.3185,
        "state": "Arizona"
    },
    {
        "name": "Beaverton",
        "latitude": 45.4779,
        "longitude": -122.8168,
        "state": "Oregon"
    },
    {
        "name": "Fishers",
        "latitude": 39.9588,
        "longitude": -85.9659,
        "state": "Indiana"
    },
    {
        "name": "Orem",
        "latitude": 40.2981,
        "longitude": -111.6994,
        "state": "Utah"
    },
    {
        "name": "Sandy",
        "latitude": 40.5709,
        "longitude": -111.8506,
        "state": "Utah"
    },
    {
        "name": "Sunrise",
        "latitude": 26.1547,
        "longitude": -80.2997,
        "state": "Florida"
    },
    {
        "name": "San Tan Valley",
        "latitude": 33.1786,
        "longitude": -111.5629,
        "state": "Arizona"
    },
    {
        "name": "Compton",
        "latitude": 33.893,
        "longitude": -118.2274,
        "state": "California"
    },
    {
        "name": "Arden-Arcade",
        "latitude": 38.6017,
        "longitude": -121.3845,
        "state": "California"
    },
    {
        "name": "Hanford",
        "latitude": 36.3274,
        "longitude": -119.6549,
        "state": "California"
    },
    {
        "name": "Boca Raton",
        "latitude": 26.3752,
        "longitude": -80.108,
        "state": "Florida"
    },
    {
        "name": "Middletown",
        "latitude": 39.5033,
        "longitude": -84.3659,
        "state": "Ohio"
    },
    {
        "name": "Livonia",
        "latitude": 42.3972,
        "longitude": -83.3733,
        "state": "Michigan"
    },
    {
        "name": "Carson",
        "latitude": 33.8374,
        "longitude": -118.2559,
        "state": "California"
    },
    {
        "name": "Slidell",
        "latitude": 30.2887,
        "longitude": -89.7828,
        "state": "Louisiana"
    },
    {
        "name": "Blacksburg",
        "latitude": 37.23,
        "longitude": -80.4279,
        "state": "Virginia"
    },
    {
        "name": "Goodyear",
        "latitude": 33.2614,
        "longitude": -112.3622,
        "state": "Arizona"
    },
    {
        "name": "Edmond",
        "latitude": 35.6689,
        "longitude": -97.416,
        "state": "Oklahoma"
    },
    {
        "name": "Fall River",
        "latitude": 41.7136,
        "longitude": -71.1015,
        "state": "Massachusetts"
    },
    {
        "name": "South Gate",
        "latitude": 33.9447,
        "longitude": -118.1926,
        "state": "California"
    },
    {
        "name": "Suffolk",
        "latitude": 36.6953,
        "longitude": -76.6398,
        "state": "Virginia"
    },
    {
        "name": "Terre Haute",
        "latitude": 39.466,
        "longitude": -87.3751,
        "state": "Indiana"
    },
    {
        "name": "Missoula",
        "latitude": 46.8751,
        "longitude": -114.0214,
        "state": "Montana"
    },
    {
        "name": "Santa Monica",
        "latitude": 34.0235,
        "longitude": -118.481,
        "state": "California"
    },
    {
        "name": "Vineland",
        "latitude": 39.4653,
        "longitude": -74.9981,
        "state": "New Jersey"
    },
    {
        "name": "Plantation",
        "latitude": 26.1259,
        "longitude": -80.2617,
        "state": "Florida"
    },
    {
        "name": "Alafaya",
        "latitude": 28.528,
        "longitude": -81.1868,
        "state": "Florida"
    },
    {
        "name": "Kirkland",
        "latitude": 47.697,
        "longitude": -122.2057,
        "state": "Washington"
    },
    {
        "name": "Hoover",
        "latitude": 33.3763,
        "longitude": -86.8068,
        "state": "Alabama"
    },
    {
        "name": "Lawton",
        "latitude": 34.6175,
        "longitude": -98.4202,
        "state": "Oklahoma"
    },
    {
        "name": "San Leandro",
        "latitude": 37.7074,
        "longitude": -122.1599,
        "state": "California"
    },
    {
        "name": "O'Fallon",
        "latitude": 38.785,
        "longitude": -90.7175,
        "state": "Missouri"
    },
    {
        "name": "Chino",
        "latitude": 33.9836,
        "longitude": -117.6654,
        "state": "California"
    },
    {
        "name": "Germantown",
        "latitude": 39.1755,
        "longitude": -77.2643,
        "state": "Maryland"
    },
    {
        "name": "Bismarck",
        "latitude": 46.8143,
        "longitude": -100.7694,
        "state": "North Dakota"
    },
    {
        "name": "Waukegan",
        "latitude": 42.3698,
        "longitude": -87.8716,
        "state": "Illinois"
    },
    {
        "name": "Buckeye",
        "latitude": 33.4314,
        "longitude": -112.6429,
        "state": "Arizona"
    },
    {
        "name": "Town 'n' Country",
        "latitude": 28.0106,
        "longitude": -82.5763,
        "state": "Florida"
    },
    {
        "name": "Clifton",
        "latitude": 40.863,
        "longitude": -74.1575,
        "state": "New Jersey"
    },
    {
        "name": "Mount Pleasant",
        "latitude": 32.8537,
        "longitude": -79.8203,
        "state": "South Carolina"
    },
    {
        "name": "Newton",
        "latitude": 42.3316,
        "longitude": -71.2085,
        "state": "Massachusetts"
    },
    {
        "name": "State College",
        "latitude": 40.7909,
        "longitude": -77.8567,
        "state": "Pennsylvania"
    },
    {
        "name": "Livermore",
        "latitude": 37.6868,
        "longitude": -121.7607,
        "state": "California"
    },
    {
        "name": "Rapid City",
        "latitude": 44.0716,
        "longitude": -103.2204,
        "state": "South Dakota"
    },
    {
        "name": "Dalton",
        "latitude": 34.769,
        "longitude": -84.972,
        "state": "Georgia"
    },
    {
        "name": "Conroe",
        "latitude": 30.3238,
        "longitude": -95.4824,
        "state": "Texas"
    },
    {
        "name": "Hawthorne",
        "latitude": 33.9147,
        "longitude": -118.3476,
        "state": "California"
    },
    {
        "name": "New Braunfels",
        "latitude": 29.6994,
        "longitude": -98.1148,
        "state": "Texas"
    },
    {
        "name": "Citrus Heights",
        "latitude": 38.6948,
        "longitude": -121.288,
        "state": "California"
    },
    {
        "name": "Whittier",
        "latitude": 33.9678,
        "longitude": -118.0188,
        "state": "California"
    },
    {
        "name": "Muncie",
        "latitude": 40.1989,
        "longitude": -85.395,
        "state": "Indiana"
    },
    {
        "name": "Homosassa Springs",
        "latitude": 28.8119,
        "longitude": -82.5392,
        "state": "Florida"
    },
    {
        "name": "Port Huron",
        "latitude": 42.9821,
        "longitude": -82.4388,
        "state": "Michigan"
    },
    {
        "name": "Napa",
        "latitude": 38.2975,
        "longitude": -122.301,
        "state": "California"
    },
    {
        "name": "Deerfield Beach",
        "latitude": 26.305,
        "longitude": -80.1277,
        "state": "Florida"
    },
    {
        "name": "Springdale",
        "latitude": 36.1901,
        "longitude": -94.1574,
        "state": "Arkansas"
    },
    {
        "name": "Newport Beach",
        "latitude": 33.6151,
        "longitude": -117.8668,
        "state": "California"
    },
    {
        "name": "San Ramon",
        "latitude": 37.7624,
        "longitude": -121.9365,
        "state": "California"
    },
    {
        "name": "Lake Forest",
        "latitude": 33.6605,
        "longitude": -117.6714,
        "state": "California"
    },
    {
        "name": "Mission",
        "latitude": 26.2039,
        "longitude": -98.3256,
        "state": "Texas"
    },
    {
        "name": "Brooklyn Park",
        "latitude": 45.1112,
        "longitude": -93.3505,
        "state": "Minnesota"
    },
    {
        "name": "Bryan",
        "latitude": 30.665,
        "longitude": -96.3807,
        "state": "Texas"
    },
    {
        "name": "Hattiesburg",
        "latitude": 31.3074,
        "longitude": -89.317,
        "state": "Mississippi"
    },
    {
        "name": "Westland",
        "latitude": 42.3192,
        "longitude": -83.3805,
        "state": "Michigan"
    },
    {
        "name": "Cicero",
        "latitude": 41.8445,
        "longitude": -87.7593,
        "state": "Illinois"
    },
    {
        "name": "Fort Myers",
        "latitude": 26.6194,
        "longitude": -81.8302,
        "state": "Florida"
    },
    {
        "name": "Pine Hills",
        "latitude": 28.5818,
        "longitude": -81.4692,
        "state": "Florida"
    },
    {
        "name": "Atascocita",
        "latitude": 29.9777,
        "longitude": -95.1953,
        "state": "Texas"
    },
    {
        "name": "Buena Park",
        "latitude": 33.8572,
        "longitude": -118.0046,
        "state": "California"
    },
    {
        "name": "Redwood City",
        "latitude": 37.5025,
        "longitude": -122.2253,
        "state": "California"
    },
    {
        "name": "Farmington Hills",
        "latitude": 42.486,
        "longitude": -83.3771,
        "state": "Michigan"
    },
    {
        "name": "Alton",
        "latitude": 38.9037,
        "longitude": -90.152,
        "state": "Illinois"
    },
    {
        "name": "Melbourne",
        "latitude": 28.1086,
        "longitude": -80.6627,
        "state": "Florida"
    },
    {
        "name": "Miami Beach",
        "latitude": 25.8171,
        "longitude": -80.1396,
        "state": "Florida"
    },
    {
        "name": "Alhambra",
        "latitude": 34.084,
        "longitude": -118.1355,
        "state": "California"
    },
    {
        "name": "Williamsburg",
        "latitude": 37.2693,
        "longitude": -76.7076,
        "state": "Virginia"
    },
    {
        "name": "Madera",
        "latitude": 36.963,
        "longitude": -120.0778,
        "state": "California"
    },
    {
        "name": "Warwick",
        "latitude": 41.7062,
        "longitude": -71.4334,
        "state": "Rhode Island"
    },
    {
        "name": "Cranston",
        "latitude": 41.7658,
        "longitude": -71.4858,
        "state": "Rhode Island"
    },
    {
        "name": "Baytown",
        "latitude": 29.7587,
        "longitude": -94.9671,
        "state": "Texas"
    },
    {
        "name": "Largo",
        "latitude": 27.9088,
        "longitude": -82.7712,
        "state": "Florida"
    },
    {
        "name": "Silver Spring",
        "latitude": 39.0028,
        "longitude": -77.0207,
        "state": "Maryland"
    },
    {
        "name": "Mountain View",
        "latitude": 37.4001,
        "longitude": -122.0796,
        "state": "California"
    },
    {
        "name": "Kankakee",
        "latitude": 41.102,
        "longitude": -87.8643,
        "state": "Illinois"
    },
    {
        "name": "Johns Creek",
        "latitude": 34.0333,
        "longitude": -84.2027,
        "state": "Georgia"
    },
    {
        "name": "Flagstaff",
        "latitude": 35.1872,
        "longitude": -111.6194,
        "state": "Arizona"
    },
    {
        "name": "Franklin",
        "latitude": 35.92,
        "longitude": -86.8516,
        "state": "Tennessee"
    },
    {
        "name": "Joplin",
        "latitude": 37.0757,
        "longitude": -94.5018,
        "state": "Missouri"
    },
    {
        "name": "Parma",
        "latitude": 41.3843,
        "longitude": -81.7286,
        "state": "Ohio"
    },
    {
        "name": "Layton",
        "latitude": 41.077,
        "longitude": -111.962,
        "state": "Utah"
    },
    {
        "name": "New Rochelle",
        "latitude": 40.9304,
        "longitude": -73.7836,
        "state": "New York"
    },
    {
        "name": "Lebanon",
        "latitude": 40.3412,
        "longitude": -76.4228,
        "state": "Pennsylvania"
    },
    {
        "name": "Somerville",
        "latitude": 42.3908,
        "longitude": -71.1014,
        "state": "Massachusetts"
    },
    {
        "name": "St. Joseph",
        "latitude": 39.7598,
        "longitude": -94.821,
        "state": "Missouri"
    },
    {
        "name": "Plymouth",
        "latitude": 45.0225,
        "longitude": -93.4617,
        "state": "Minnesota"
    },
    {
        "name": "Tustin",
        "latitude": 33.7311,
        "longitude": -117.8107,
        "state": "California"
    },
    {
        "name": "Zephyrhills",
        "latitude": 28.2409,
        "longitude": -82.1797,
        "state": "Florida"
    },
    {
        "name": "Milpitas",
        "latitude": 37.4336,
        "longitude": -121.8921,
        "state": "California"
    },
    {
        "name": "Pleasanton",
        "latitude": 37.6663,
        "longitude": -121.8805,
        "state": "California"
    },
    {
        "name": "Boynton Beach",
        "latitude": 26.5281,
        "longitude": -80.0811,
        "state": "Florida"
    },
    {
        "name": "Texarkana",
        "latitude": 33.45,
        "longitude": -94.0847,
        "state": "Texas"
    },
    {
        "name": "Folsom",
        "latitude": 38.6668,
        "longitude": -121.1422,
        "state": "California"
    },
    {
        "name": "Bellflower",
        "latitude": 33.888,
        "longitude": -118.1271,
        "state": "California"
    },
    {
        "name": "Pharr",
        "latitude": 26.1685,
        "longitude": -98.1904,
        "state": "Texas"
    },
    {
        "name": "Homestead",
        "latitude": 25.4665,
        "longitude": -80.4472,
        "state": "Florida"
    },
    {
        "name": "Valdosta",
        "latitude": 30.8502,
        "longitude": -83.2788,
        "state": "Georgia"
    },
    {
        "name": "Upland",
        "latitude": 34.1178,
        "longitude": -117.6604,
        "state": "California"
    },
    {
        "name": "Evanston",
        "latitude": 42.0464,
        "longitude": -87.6943,
        "state": "Illinois"
    },
    {
        "name": "Elizabethtown",
        "latitude": 37.7031,
        "longitude": -85.8773,
        "state": "Kentucky"
    },
    {
        "name": "St. Augustine",
        "latitude": 29.8976,
        "longitude": -81.31,
        "state": "Florida"
    },
    {
        "name": "Rancho Cordova",
        "latitude": 38.5737,
        "longitude": -121.2527,
        "state": "California"
    },
    {
        "name": "Alameda",
        "latitude": 37.7668,
        "longitude": -122.267,
        "state": "California"
    },
    {
        "name": "Chino Hills",
        "latitude": 33.9508,
        "longitude": -117.7254,
        "state": "California"
    },
    {
        "name": "Perris",
        "latitude": 33.7898,
        "longitude": -117.2233,
        "state": "California"
    },
    {
        "name": "Schaumburg",
        "latitude": 42.0308,
        "longitude": -88.0838,
        "state": "Illinois"
    },
    {
        "name": "Kendall",
        "latitude": 25.6697,
        "longitude": -80.3556,
        "state": "Florida"
    },
    {
        "name": "Camarillo",
        "latitude": 34.223,
        "longitude": -119.0321,
        "state": "California"
    },
    {
        "name": "Anniston",
        "latitude": 33.6712,
        "longitude": -85.8135,
        "state": "Alabama"
    },
    {
        "name": "Sumter",
        "latitude": 33.9392,
        "longitude": -80.393,
        "state": "South Carolina"
    },
    {
        "name": "Jonesboro",
        "latitude": 35.8212,
        "longitude": -90.6791,
        "state": "Arkansas"
    },
    {
        "name": "Carmichael",
        "latitude": 38.6318,
        "longitude": -121.3263,
        "state": "California"
    },
    {
        "name": "Arlington Heights",
        "latitude": 42.0955,
        "longitude": -87.9826,
        "state": "Illinois"
    },
    {
        "name": "Morgantown",
        "latitude": 39.6383,
        "longitude": -79.9464,
        "state": "West Virginia"
    },
    {
        "name": "Wyoming",
        "latitude": 42.8908,
        "longitude": -85.7066,
        "state": "Michigan"
    },
    {
        "name": "Cheyenne",
        "latitude": 41.135,
        "longitude": -104.7902,
        "state": "Wyoming"
    },
    {
        "name": "Pasco",
        "latitude": 46.2506,
        "longitude": -119.1305,
        "state": "Washington"
    },
    {
        "name": "Watsonville",
        "latitude": 36.9206,
        "longitude": -121.7708,
        "state": "California"
    },
    {
        "name": "Southfield",
        "latitude": 42.4765,
        "longitude": -83.2605,
        "state": "Michigan"
    },
    {
        "name": "Wausau",
        "latitude": 44.962,
        "longitude": -89.6459,
        "state": "Wisconsin"
    },
    {
        "name": "Rochester Hills",
        "latitude": 42.6645,
        "longitude": -83.1563,
        "state": "Michigan"
    },
    {
        "name": "Loveland",
        "latitude": 40.4166,
        "longitude": -105.0623,
        "state": "Colorado"
    },
    {
        "name": "Pittsburg",
        "latitude": 38.0182,
        "longitude": -121.8965,
        "state": "California"
    },
    {
        "name": "South Jordan",
        "latitude": 40.557,
        "longitude": -111.9784,
        "state": "Utah"
    },
    {
        "name": "Battle Creek",
        "latitude": 42.2985,
        "longitude": -85.2296,
        "state": "Michigan"
    },
    {
        "name": "Bethlehem",
        "latitude": 40.6266,
        "longitude": -75.3679,
        "state": "Pennsylvania"
    },
    {
        "name": "Davis",
        "latitude": 38.5553,
        "longitude": -121.737,
        "state": "California"
    },
    {
        "name": "Pawtucket",
        "latitude": 41.8744,
        "longitude": -71.3743,
        "state": "Rhode Island"
    },
    {
        "name": "Flower Mound",
        "latitude": 33.0343,
        "longitude": -97.1146,
        "state": "Texas"
    },
    {
        "name": "Harrisonburg",
        "latitude": 38.4362,
        "longitude": -78.8735,
        "state": "Virginia"
    },
    {
        "name": "Cedar Park",
        "latitude": 30.5105,
        "longitude": -97.8197,
        "state": "Texas"
    },
    {
        "name": "Oshkosh",
        "latitude": 44.0227,
        "longitude": -88.5619,
        "state": "Wisconsin"
    },
    {
        "name": "Winchester",
        "latitude": 39.1735,
        "longitude": -78.1746,
        "state": "Virginia"
    },
    {
        "name": "Ellicott City",
        "latitude": 39.2774,
        "longitude": -76.8345,
        "state": "Maryland"
    },
    {
        "name": "Pocatello",
        "latitude": 42.8724,
        "longitude": -112.4647,
        "state": "Idaho"
    },
    {
        "name": "Hilton Head Island",
        "latitude": 32.1896,
        "longitude": -80.7499,
        "state": "South Carolina"
    },
    {
        "name": "New Britain",
        "latitude": 41.6759,
        "longitude": -72.7862,
        "state": "Connecticut"
    },
    {
        "name": "Woodbury",
        "latitude": 44.9057,
        "longitude": -92.923,
        "state": "Minnesota"
    },
    {
        "name": "Lauderhill",
        "latitude": 26.1605,
        "longitude": -80.2241,
        "state": "Florida"
    },
    {
        "name": "Lehi",
        "latitude": 40.4136,
        "longitude": -111.8725,
        "state": "Utah"
    },
    {
        "name": "Bolingbrook",
        "latitude": 41.6901,
        "longitude": -88.1021,
        "state": "Illinois"
    },
    {
        "name": "Dale City",
        "latitude": 38.6473,
        "longitude": -77.3459,
        "state": "Virginia"
    },
    {
        "name": "Missouri City",
        "latitude": 29.563,
        "longitude": -95.5365,
        "state": "Texas"
    },
    {
        "name": "Lake Jackson",
        "latitude": 29.0516,
        "longitude": -95.4521,
        "state": "Texas"
    },
    {
        "name": "Altoona",
        "latitude": 40.5082,
        "longitude": -78.4007,
        "state": "Pennsylvania"
    },
    {
        "name": "Doral",
        "latitude": 25.8152,
        "longitude": -80.3565,
        "state": "Florida"
    },
    {
        "name": "Owensboro",
        "latitude": 37.7575,
        "longitude": -87.1172,
        "state": "Kentucky"
    },
    {
        "name": "Centreville",
        "latitude": 38.839,
        "longitude": -77.4389,
        "state": "Virginia"
    },
    {
        "name": "Baldwin Park",
        "latitude": 34.0829,
        "longitude": -117.9722,
        "state": "California"
    },
    {
        "name": "Broomfield",
        "latitude": 39.9542,
        "longitude": -105.0526,
        "state": "Colorado"
    },
    {
        "name": "Redlands",
        "latitude": 34.0512,
        "longitude": -117.1712,
        "state": "California"
    },
    {
        "name": "Dothan",
        "latitude": 31.2336,
        "longitude": -85.407,
        "state": "Alabama"
    },
    {
        "name": "Camden",
        "latitude": 39.9361,
        "longitude": -75.1073,
        "state": "New Jersey"
    },
    {
        "name": "Redmond",
        "latitude": 47.6763,
        "longitude": -122.1169,
        "state": "Washington"
    },
    {
        "name": "Framingham",
        "latitude": 42.3085,
        "longitude": -71.4368,
        "state": "Massachusetts"
    },
    {
        "name": "Janesville",
        "latitude": 42.6854,
        "longitude": -89.0135,
        "state": "Wisconsin"
    },
    {
        "name": "Waukesha",
        "latitude": 43.0087,
        "longitude": -88.2464,
        "state": "Wisconsin"
    },
    {
        "name": "Tamarac",
        "latitude": 26.2056,
        "longitude": -80.2539,
        "state": "Florida"
    },
    {
        "name": "Wenatchee",
        "latitude": 47.436,
        "longitude": -120.3295,
        "state": "Washington"
    },
    {
        "name": "Daytona Beach",
        "latitude": 29.1995,
        "longitude": -81.0982,
        "state": "Florida"
    },
    {
        "name": "Castle Rock",
        "latitude": 39.3763,
        "longitude": -104.8535,
        "state": "Colorado"
    },
    {
        "name": "Redondo Beach",
        "latitude": 33.8577,
        "longitude": -118.3765,
        "state": "California"
    },
    {
        "name": "Eldersburg",
        "latitude": 39.4041,
        "longitude": -76.9528,
        "state": "Maryland"
    },
    {
        "name": "Conway",
        "latitude": 35.0753,
        "longitude": -92.4692,
        "state": "Arkansas"
    },
    {
        "name": "Bayonne",
        "latitude": 40.6668,
        "longitude": -74.1158,
        "state": "New Jersey"
    },
    {
        "name": "Rocklin",
        "latitude": 38.8075,
        "longitude": -121.2489,
        "state": "California"
    },
    {
        "name": "Passaic",
        "latitude": 40.8574,
        "longitude": -74.1282,
        "state": "New Jersey"
    },
    {
        "name": "Sheboygan",
        "latitude": 43.7403,
        "longitude": -87.7316,
        "state": "Wisconsin"
    },
    {
        "name": "Casas Adobes",
        "latitude": 32.3423,
        "longitude": -111.0113,
        "state": "Arizona"
    },
    {
        "name": "St. Charles",
        "latitude": 38.7954,
        "longitude": -90.5157,
        "state": "Missouri"
    },
    {
        "name": "Maple Grove",
        "latitude": 45.1089,
        "longitude": -93.4626,
        "state": "Minnesota"
    },
    {
        "name": "Walnut Creek",
        "latitude": 37.9024,
        "longitude": -122.0399,
        "state": "California"
    },
    {
        "name": "North Richland Hills",
        "latitude": 32.8604,
        "longitude": -97.218,
        "state": "Texas"
    },
    {
        "name": "Gary",
        "latitude": 41.5905,
        "longitude": -87.3473,
        "state": "Indiana"
    },
    {
        "name": "Glen Burnie",
        "latitude": 39.156,
        "longitude": -76.6071,
        "state": "Maryland"
    },
    {
        "name": "West Bend",
        "latitude": 43.4173,
        "longitude": -88.1818,
        "state": "Wisconsin"
    },
    {
        "name": "Lodi",
        "latitude": 38.1218,
        "longitude": -121.2932,
        "state": "California"
    },
    {
        "name": "Lima",
        "latitude": 40.741,
        "longitude": -84.112,
        "state": "Ohio"
    },
    {
        "name": "Lakeville",
        "latitude": 44.6774,
        "longitude": -93.252,
        "state": "Minnesota"
    },
    {
        "name": "Blaine",
        "latitude": 45.1696,
        "longitude": -93.2077,
        "state": "Minnesota"
    },
    {
        "name": "Poinciana",
        "latitude": 28.1217,
        "longitude": -81.4821,
        "state": "Florida"
    },
    {
        "name": "East Orange",
        "latitude": 40.7651,
        "longitude": -74.2117,
        "state": "New Jersey"
    },
    {
        "name": "Noblesville",
        "latitude": 40.0355,
        "longitude": -86.0042,
        "state": "Indiana"
    },
    {
        "name": "Gaithersburg",
        "latitude": 39.1346,
        "longitude": -77.2131,
        "state": "Maryland"
    },
    {
        "name": "Lake Elsinore",
        "latitude": 33.6847,
        "longitude": -117.3344,
        "state": "California"
    },
    {
        "name": "Palo Alto",
        "latitude": 37.3905,
        "longitude": -122.1468,
        "state": "California"
    },
    {
        "name": "Eastvale",
        "latitude": 33.9617,
        "longitude": -117.5803,
        "state": "California"
    },
    {
        "name": "Tulare",
        "latitude": 36.1995,
        "longitude": -119.34,
        "state": "California"
    },
    {
        "name": "Rogers",
        "latitude": 36.317,
        "longitude": -94.1531,
        "state": "Arkansas"
    },
    {
        "name": "Yorba Linda",
        "latitude": 33.889,
        "longitude": -117.7714,
        "state": "California"
    },
    {
        "name": "Parkersburg",
        "latitude": 39.2623,
        "longitude": -81.542,
        "state": "West Virginia"
    },
    {
        "name": "Eagan",
        "latitude": 44.817,
        "longitude": -93.1638,
        "state": "Minnesota"
    },
    {
        "name": "Weston",
        "latitude": 26.1006,
        "longitude": -80.4054,
        "state": "Florida"
    },
    {
        "name": "Bay City",
        "latitude": 43.5902,
        "longitude": -83.8887,
        "state": "Michigan"
    },
    {
        "name": "Dubuque",
        "latitude": 42.5002,
        "longitude": -90.707,
        "state": "Iowa"
    },
    {
        "name": "Porterville",
        "latitude": 36.0643,
        "longitude": -119.0338,
        "state": "California"
    },
    {
        "name": "Palatine",
        "latitude": 42.118,
        "longitude": -88.043,
        "state": "Illinois"
    },
    {
        "name": "El Paso de Robles",
        "latitude": 35.6394,
        "longitude": -120.656,
        "state": "California"
    },
    {
        "name": "West Des Moines",
        "latitude": 41.5521,
        "longitude": -93.7806,
        "state": "Iowa"
    },
    {
        "name": "Lynwood",
        "latitude": 33.924,
        "longitude": -118.2016,
        "state": "California"
    },
    {
        "name": "Skokie",
        "latitude": 42.036,
        "longitude": -87.74,
        "state": "Illinois"
    },
    {
        "name": "Sherman",
        "latitude": 33.6273,
        "longitude": -96.6221,
        "state": "Texas"
    },
    {
        "name": "Rockville",
        "latitude": 39.0834,
        "longitude": -77.1553,
        "state": "Maryland"
    },
    {
        "name": "Haverhill",
        "latitude": 42.7838,
        "longitude": -71.0871,
        "state": "Massachusetts"
    },
    {
        "name": "Hanover",
        "latitude": 39.8118,
        "longitude": -76.9836,
        "state": "Pennsylvania"
    },
    {
        "name": "Shawnee",
        "latitude": 39.0158,
        "longitude": -94.8076,
        "state": "Kansas"
    },
    {
        "name": "Rome",
        "latitude": 34.2662,
        "longitude": -85.1863,
        "state": "Georgia"
    },
    {
        "name": "Schenectady",
        "latitude": 42.8025,
        "longitude": -73.9275,
        "state": "New York"
    },
    {
        "name": "South Hill",
        "latitude": 47.1198,
        "longitude": -122.2853,
        "state": "Washington"
    },
    {
        "name": "DeKalb",
        "latitude": 41.9314,
        "longitude": -88.7481,
        "state": "Illinois"
    },
    {
        "name": "Petaluma",
        "latitude": 38.2423,
        "longitude": -122.6266,
        "state": "California"
    },
    {
        "name": "Sammamish",
        "latitude": 47.6017,
        "longitude": -122.0416,
        "state": "Washington"
    },
    {
        "name": "Carbondale",
        "latitude": 37.7221,
        "longitude": -89.2237,
        "state": "Illinois"
    },
    {
        "name": "Delray Beach",
        "latitude": 26.455,
        "longitude": -80.0905,
        "state": "Florida"
    },
    {
        "name": "Dundalk",
        "latitude": 39.2704,
        "longitude": -76.4942,
        "state": "Maryland"
    },
    {
        "name": "Kenner",
        "latitude": 30.0109,
        "longitude": -90.2549,
        "state": "Louisiana"
    },
    {
        "name": "Ankeny",
        "latitude": 41.7288,
        "longitude": -93.6031,
        "state": "Iowa"
    },
    {
        "name": "South San Francisco",
        "latitude": 37.6538,
        "longitude": -122.4196,
        "state": "California"
    },
    {
        "name": "Castro Valley",
        "latitude": 37.7088,
        "longitude": -122.0626,
        "state": "California"
    },
    {
        "name": "Bethesda",
        "latitude": 38.9866,
        "longitude": -77.1188,
        "state": "Maryland"
    },
    {
        "name": "Corvallis",
        "latitude": 44.5698,
        "longitude": -123.2779,
        "state": "Oregon"
    },
    {
        "name": "Ames",
        "latitude": 42.0256,
        "longitude": -93.6217,
        "state": "Iowa"
    },
    {
        "name": "Glens Falls",
        "latitude": 43.3109,
        "longitude": -73.6458,
        "state": "New York"
    },
    {
        "name": "Michigan City",
        "latitude": 41.7092,
        "longitude": -86.869,
        "state": "Indiana"
    },
    {
        "name": "Victoria",
        "latitude": 28.8287,
        "longitude": -96.9849,
        "state": "Texas"
    },
    {
        "name": "Malden",
        "latitude": 42.4305,
        "longitude": -71.0576,
        "state": "Massachusetts"
    },
    {
        "name": "Weirton",
        "latitude": 40.406,
        "longitude": -80.5671,
        "state": "West Virginia"
    },
    {
        "name": "Novi",
        "latitude": 42.4786,
        "longitude": -83.4893,
        "state": "Michigan"
    },
    {
        "name": "Alpharetta",
        "latitude": 34.0704,
        "longitude": -84.2738,
        "state": "Georgia"
    },
    {
        "name": "Wesley Chapel",
        "latitude": 28.2106,
        "longitude": -82.3238,
        "state": "Florida"
    },
    {
        "name": "Waltham",
        "latitude": 42.3889,
        "longitude": -71.2423,
        "state": "Massachusetts"
    },
    {
        "name": "Laguna Niguel",
        "latitude": 33.5275,
        "longitude": -117.705,
        "state": "California"
    },
    {
        "name": "San Clemente",
        "latitude": 33.4499,
        "longitude": -117.6102,
        "state": "California"
    },
    {
        "name": "North Little Rock",
        "latitude": 34.7807,
        "longitude": -92.2371,
        "state": "Arkansas"
    },
    {
        "name": "Florence-Graham",
        "latitude": 33.9682,
        "longitude": -118.2447,
        "state": "California"
    },
    {
        "name": "Eden Prairie",
        "latitude": 44.8488,
        "longitude": -93.4595,
        "state": "Minnesota"
    },
    {
        "name": "Twin Rivers",
        "latitude": 40.2631,
        "longitude": -74.4917,
        "state": "New Jersey"
    },
    {
        "name": "Pflugerville",
        "latitude": 30.4515,
        "longitude": -97.6018,
        "state": "Texas"
    },
    {
        "name": "Casper",
        "latitude": 42.842,
        "longitude": -106.3208,
        "state": "Wyoming"
    },
    {
        "name": "Burnsville",
        "latitude": 44.7648,
        "longitude": -93.2793,
        "state": "Minnesota"
    },
    {
        "name": "Grand Forks",
        "latitude": 47.9214,
        "longitude": -97.0884,
        "state": "North Dakota"
    },
    {
        "name": "Millcreek",
        "latitude": 40.6892,
        "longitude": -111.8292,
        "state": "Utah"
    },
    {
        "name": "Elmira",
        "latitude": 42.0938,
        "longitude": -76.8097,
        "state": "New York"
    },
    {
        "name": "Sebring",
        "latitude": 27.477,
        "longitude": -81.453,
        "state": "Florida"
    },
    {
        "name": "La Habra",
        "latitude": 33.9282,
        "longitude": -117.9515,
        "state": "California"
    },
    {
        "name": "Coon Rapids",
        "latitude": 45.1755,
        "longitude": -93.3094,
        "state": "Minnesota"
    },
    {
        "name": "Bossier City",
        "latitude": 32.5224,
        "longitude": -93.6668,
        "state": "Louisiana"
    },
    {
        "name": "Hamilton",
        "latitude": 39.3939,
        "longitude": -84.5653,
        "state": "Ohio"
    },
    {
        "name": "Taylor",
        "latitude": 42.226,
        "longitude": -83.2688,
        "state": "Michigan"
    },
    {
        "name": "Greenwood",
        "latitude": 39.6019,
        "longitude": -86.1073,
        "state": "Indiana"
    },
    {
        "name": "Montebello",
        "latitude": 34.0155,
        "longitude": -118.1108,
        "state": "California"
    },
    {
        "name": "Moore",
        "latitude": 35.3293,
        "longitude": -97.4757,
        "state": "Oklahoma"
    },
    {
        "name": "Council Bluffs",
        "latitude": 41.2369,
        "longitude": -95.8516,
        "state": "Iowa"
    },
    {
        "name": "Rowlett",
        "latitude": 32.9155,
        "longitude": -96.5489,
        "state": "Texas"
    },
    {
        "name": "Spring",
        "latitude": 30.0613,
        "longitude": -95.383,
        "state": "Texas"
    },
    {
        "name": "Port Charlotte",
        "latitude": 26.9918,
        "longitude": -82.114,
        "state": "Florida"
    },
    {
        "name": "Reston",
        "latitude": 38.9497,
        "longitude": -77.3461,
        "state": "Virginia"
    },
    {
        "name": "Pico Rivera",
        "latitude": 33.9901,
        "longitude": -118.0888,
        "state": "California"
    },
    {
        "name": "Dearborn Heights",
        "latitude": 42.3164,
        "longitude": -83.2769,
        "state": "Michigan"
    },
    {
        "name": "Port Orange",
        "latitude": 29.1085,
        "longitude": -81.0137,
        "state": "Florida"
    },
    {
        "name": "Encinitas",
        "latitude": 33.0492,
        "longitude": -117.261,
        "state": "California"
    },
    {
        "name": "Great Falls",
        "latitude": 47.5022,
        "longitude": -111.2996,
        "state": "Montana"
    },
    {
        "name": "Rocky Mount",
        "latitude": 35.9685,
        "longitude": -77.804,
        "state": "North Carolina"
    },
    {
        "name": "Commerce City",
        "latitude": 39.8641,
        "longitude": -104.843,
        "state": "Colorado"
    },
    {
        "name": "Pontiac",
        "latitude": 42.6493,
        "longitude": -83.2878,
        "state": "Michigan"
    },
    {
        "name": "The Hammocks",
        "latitude": 25.67,
        "longitude": -80.4482,
        "state": "Florida"
    },
    {
        "name": "Wellington",
        "latitude": 26.6461,
        "longitude": -80.2699,
        "state": "Florida"
    },
    {
        "name": "San Rafael",
        "latitude": 37.9905,
        "longitude": -122.5221,
        "state": "California"
    },
    {
        "name": "Monterey Park",
        "latitude": 34.0497,
        "longitude": -118.1326,
        "state": "California"
    },
    {
        "name": "La Mesa",
        "latitude": 32.7703,
        "longitude": -117.0204,
        "state": "California"
    },
    {
        "name": "Woodland",
        "latitude": 38.6712,
        "longitude": -121.75,
        "state": "California"
    },
    {
        "name": "Marietta",
        "latitude": 33.9533,
        "longitude": -84.5422,
        "state": "Georgia"
    },
    {
        "name": "Chapel Hill",
        "latitude": 35.9271,
        "longitude": -79.0391,
        "state": "North Carolina"
    },
    {
        "name": "Gardena",
        "latitude": 33.8943,
        "longitude": -118.3072,
        "state": "California"
    },
    {
        "name": "Meriden",
        "latitude": 41.5369,
        "longitude": -72.7946,
        "state": "Connecticut"
    },
    {
        "name": "Revere",
        "latitude": 42.4189,
        "longitude": -71.004,
        "state": "Massachusetts"
    },
    {
        "name": "Palm Harbor",
        "latitude": 28.0847,
        "longitude": -82.7481,
        "state": "Florida"
    },
    {
        "name": "Cupertino",
        "latitude": 37.3168,
        "longitude": -122.0466,
        "state": "California"
    },
    {
        "name": "Jupiter",
        "latitude": 26.92,
        "longitude": -80.1128,
        "state": "Florida"
    },
    {
        "name": "Hendersonville",
        "latitude": 36.3063,
        "longitude": -86.5997,
        "state": "Tennessee"
    },
    {
        "name": "North Miami",
        "latitude": 25.9008,
        "longitude": -80.1686,
        "state": "Florida"
    },
    {
        "name": "Des Plaines",
        "latitude": 42.0345,
        "longitude": -87.9008,
        "state": "Illinois"
    },
    {
        "name": "Taylorsville",
        "latitude": 40.6569,
        "longitude": -111.9493,
        "state": "Utah"
    },
    {
        "name": "West Allis",
        "latitude": 43.0068,
        "longitude": -88.0296,
        "state": "Wisconsin"
    },
    {
        "name": "Sanford",
        "latitude": 28.7891,
        "longitude": -81.2757,
        "state": "Florida"
    },
    {
        "name": "Huntersville",
        "latitude": 35.406,
        "longitude": -80.8716,
        "state": "North Carolina"
    },
    {
        "name": "Euless",
        "latitude": 32.8508,
        "longitude": -97.08,
        "state": "Texas"
    },
    {
        "name": "Richland",
        "latitude": 46.2824,
        "longitude": -119.2939,
        "state": "Washington"
    },
    {
        "name": "Santee",
        "latitude": 32.8554,
        "longitude": -116.9851,
        "state": "California"
    },
    {
        "name": "White Plains",
        "latitude": 41.022,
        "longitude": -73.7547,
        "state": "New York"
    },
    {
        "name": "Hoboken",
        "latitude": 40.7452,
        "longitude": -74.0281,
        "state": "New Jersey"
    },
    {
        "name": "Kokomo",
        "latitude": 40.464,
        "longitude": -86.1277,
        "state": "Indiana"
    },
    {
        "name": "Taunton",
        "latitude": 41.9036,
        "longitude": -71.0943,
        "state": "Massachusetts"
    },
    {
        "name": "St. Clair Shores",
        "latitude": 42.4925,
        "longitude": -82.8961,
        "state": "Michigan"
    },
    {
        "name": "Towson",
        "latitude": 39.3944,
        "longitude": -76.619,
        "state": "Maryland"
    },
    {
        "name": "Caldwell",
        "latitude": 43.6453,
        "longitude": -116.6594,
        "state": "Idaho"
    },
    {
        "name": "South Whittier",
        "latitude": 33.9336,
        "longitude": -118.0312,
        "state": "California"
    },
    {
        "name": "Orland Park",
        "latitude": 41.6075,
        "longitude": -87.8619,
        "state": "Illinois"
    },
    {
        "name": "Stonecrest",
        "latitude": 33.6842,
        "longitude": -84.1372,
        "state": "Georgia"
    },
    {
        "name": "Palm Beach Gardens",
        "latitude": 26.8466,
        "longitude": -80.1679,
        "state": "Florida"
    },
    {
        "name": "Royal Oak",
        "latitude": 42.5084,
        "longitude": -83.1539,
        "state": "Michigan"
    },
    {
        "name": "Margate",
        "latitude": 26.2466,
        "longitude": -80.2119,
        "state": "Florida"
    },
    {
        "name": "Blue Springs",
        "latitude": 39.0124,
        "longitude": -94.2721,
        "state": "Missouri"
    },
    {
        "name": "Shoreline",
        "latitude": 47.7564,
        "longitude": -122.3426,
        "state": "Washington"
    },
    {
        "name": "Midwest City",
        "latitude": 35.463,
        "longitude": -97.371,
        "state": "Oklahoma"
    },
    {
        "name": "Bowie",
        "latitude": 38.9549,
        "longitude": -76.7406,
        "state": "Maryland"
    },
    {
        "name": "Apex",
        "latitude": 35.7237,
        "longitude": -78.8743,
        "state": "North Carolina"
    },
    {
        "name": "Oak Lawn",
        "latitude": 41.7139,
        "longitude": -87.7528,
        "state": "Illinois"
    },
    {
        "name": "Carson City",
        "latitude": 39.1511,
        "longitude": -119.7476,
        "state": "Nevada"
    },
    {
        "name": "Fountainebleau",
        "latitude": 25.7723,
        "longitude": -80.346,
        "state": "Florida"
    },
    {
        "name": "Queen Creek",
        "latitude": 33.2454,
        "longitude": -111.6173,
        "state": "Arizona"
    },
    {
        "name": "Leander",
        "latitude": 30.5728,
        "longitude": -97.8618,
        "state": "Texas"
    },
    {
        "name": "Coconut Creek",
        "latitude": 26.2803,
        "longitude": -80.1842,
        "state": "Florida"
    },
    {
        "name": "Kettering",
        "latitude": 39.6956,
        "longitude": -84.1494,
        "state": "Ohio"
    },
    {
        "name": "Parker",
        "latitude": 39.5084,
        "longitude": -104.7753,
        "state": "Colorado"
    },
    {
        "name": "St. Peters",
        "latitude": 38.7825,
        "longitude": -90.6061,
        "state": "Missouri"
    },
    {
        "name": "Fountain Valley",
        "latitude": 33.7105,
        "longitude": -117.9514,
        "state": "California"
    },
    {
        "name": "Maricopa",
        "latitude": 33.0408,
        "longitude": -112.0011,
        "state": "Arizona"
    },
    {
        "name": "Berwyn",
        "latitude": 41.8433,
        "longitude": -87.7909,
        "state": "Illinois"
    },
    {
        "name": "National City",
        "latitude": 32.6654,
        "longitude": -117.0983,
        "state": "California"
    },
    {
        "name": "Lenexa",
        "latitude": 38.9609,
        "longitude": -94.8018,
        "state": "Kansas"
    },
    {
        "name": "Highland",
        "latitude": 34.1113,
        "longitude": -117.165,
        "state": "California"
    },